{
  "totalResultsCount": 6,
  "geonames": [
    {
      "adminCode1": "10375969",
      "lng": "-81.25797",
      "geonameId": 10375969,
      "toponymName": "Bodden Town",
      "countryId": "3580718",
      "fcl": "A",
      "population": 10341,
      "countryCode": "KY",
      "name": "Bodden Town",
      "fclName": "country, state, region,...",
      "countryName": "Cayman Islands",
      "fcodeName": "first-order administrative division",
      "adminName1": "Bodden Town",
      "lat": "19.2821",
      "fcode": "ADM1"
    },
    {
      "adminCode1": "10375971",
      "lng": "-81.11052",
      "geonameId": 10375971,
      "toponymName": "East End",
      "countryId": "3580718",
      "fcl": "A",
      "population": 1369,
      "countryCode": "KY",
      "name": "East End",
      "fclName": "country, state, region,...",
      "countryName": "Cayman Islands",
      "fcodeName": "first-order administrative division",
      "adminName1": "East End",
      "lat": "19.29976",
      "fcode": "ADM1"
    },
    {
      "adminCode1": "10346796",
      "lng": "-81.36981",
      "geonameId": 10346796,
      "toponymName": "George Town",
      "countryId": "3580718",
      "fcl": "A",
      "population": 27704,
      "countryCode": "KY",
      "name": "George Town",
      "fclName": "country, state, region,...",
      "countryName": "Cayman Islands",
      "fcodeName": "first-order administrative division",
      "adminName1": "George Town",
      "lat": "19.28908",
      "fcode": "ADM1"
    },
    {
      "adminCode1": "10375970",
      "lng": "-81.20849",
      "geonameId": 10375970,
      "toponymName": "North Side",
      "countryId": "3580718",
      "fcl": "A",
      "population": 1437,
      "countryCode": "KY",
      "name": "North Side",
      "fclName": "country, state, region,...",
      "countryName": "Cayman Islands",
      "fcodeName": "first-order administrative division",
      "adminName1": "North Side",
      "lat": "19.34824",
      "fcode": "ADM1"
    },
    {
      "adminCode1": "10375972",
      "lng": "-79.78958",
      "geonameId": 10375972,
      "toponymName": "Sister Island",
      "countryId": "3580718",
      "fcl": "A",
      "population": 2547,
      "countryCode": "KY",
      "name": "Sister Island",
      "fclName": "country, state, region,...",
      "countryName": "Cayman Islands",
      "fcodeName": "first-order administrative division",
      "adminName1": "Sister Island",
      "lat": "19.72195",
      "fcode": "ADM1"
    },
    {
      "adminCode1": "10375968",
      "lng": "-81.38869",
      "geonameId": 10375968,
      "toponymName": "West Bay",
      "countryId": "3580718",
      "fcl": "A",
      "population": 11269,
      "countryCode": "KY",
      "name": "West Bay",
      "fclName": "country, state, region,...",
      "countryName": "Cayman Islands",
      "fcodeName": "first-order administrative division",
      "adminName1": "West Bay",
      "lat": "19.38039",
      "fcode": "ADM1"
    }
  ]
}