{
  "totalResultsCount": 19,
  "geonames": [
    {
      "adminCode1": "AH",
      "lng": "144.74773",
      "geonameId": 4043524,
      "toponymName": "Agana Heights Municipality",
      "countryId": "4043988",
      "fcl": "A",
      "population": 3940,
      "countryCode": "GU",
      "name": "Agana Heights",
      "fclName": "country, state, region,...",
      "countryName": "Guam",
      "fcodeName": "first-order administrative division",
      "adminName1": "Agana Heights",
      "lat": "13.46559",
      "fcode": "ADM1"
    },
    {
      "adminCode1": "AT",
      "lng": "144.66938",
      "geonameId": 4043725,
      "toponymName": "Agat Municipality",
      "countryId": "4043988",
      "fcl": "A",
      "population": 5656,
      "countryCode": "GU",
      "name": "Agat",
      "fclName": "country, state, region,...",
      "countryName": "Guam",
      "fcodeName": "first-order administrative division",
      "adminName1": "Agat",
      "lat": "13.35619",
      "fcode": "ADM1"
    },
    {
      "adminCode1": "AS",
      "lng": "144.7164",
      "geonameId": 4043691,
      "toponymName": "Asan-Maina Municipality",
      "countryId": "4043988",
      "fcl": "A",
      "population": 2137,
      "countryCode": "GU",
      "name": "Asan",
      "fclName": "country, state, region,...",
      "countryName": "Guam",
      "fcodeName": "first-order administrative division",
      "adminName1": "Asan",
      "lat": "13.47214",
      "fcode": "ADM1"
    },
    {
      "adminCode1": "BA",
      "lng": "144.7988",
      "geonameId": 4043885,
      "toponymName": "Barrigada Municipality",
      "countryId": "4043988",
      "fcl": "A",
      "population": 8875,
      "countryCode": "GU",
      "name": "Barrigada",
      "fclName": "country, state, region,...",
      "countryName": "Guam",
      "fcodeName": "first-order administrative division",
      "adminName1": "Barrigada",
      "lat": "13.46906",
      "fcode": "ADM1"
    },
    {
      "adminCode1": "CP",
      "lng": "144.75888",
      "geonameId": 4043614,
      "toponymName": "Chalan Pago-Ordot Municipality",
      "countryId": "4043988",
      "fcl": "A",
      "population": 6822,
      "countryCode": "GU",
      "name": "Chalan Pago-Ordot",
      "fclName": "country, state, region,...",
      "countryName": "Guam",
      "fcodeName": "first-order administrative division",
      "adminName1": "Chalan Pago-Ordot",
      "lat": "13.4474",
      "fcode": "ADM1"
    },
    {
      "adminCode1": "DD",
      "lng": "144.83898",
      "geonameId": 4043877,
      "toponymName": "Dededo Municipality",
      "countryId": "4043988",
      "fcl": "A",
      "population": 44943,
      "countryCode": "GU",
      "name": "Dededo",
      "fclName": "country, state, region,...",
      "countryName": "Guam",
      "fcodeName": "first-order administrative division",
      "adminName1": "Dededo",
      "lat": "13.51776",
      "fcode": "ADM1"
    },
    {
      "adminCode1": "AN",
      "lng": "144.75788",
      "geonameId": 4044019,
      "toponymName": "Hagåtña Municipality",
      "countryId": "4043988",
      "fcl": "A",
      "population": 1100,
      "countryCode": "GU",
      "name": "Hagatna",
      "fclName": "country, state, region,...",
      "countryName": "Guam",
      "fcodeName": "first-order administrative division",
      "adminName1": "Hagatna",
      "lat": "13.47279",
      "fcode": "ADM1"
    },
    {
      "adminCode1": "IN",
      "lng": "144.73479",
      "geonameId": 4044041,
      "toponymName": "Inarajan Municipality",
      "countryId": "4043988",
      "fcl": "A",
      "population": 3052,
      "countryCode": "GU",
      "name": "Inarajan",
      "fclName": "country, state, region,...",
      "countryName": "Guam",
      "fcodeName": "first-order administrative division",
      "adminName1": "Inarajan",
      "lat": "13.29414",
      "fcode": "ADM1"
    },
    {
      "adminCode1": "MA",
      "lng": "144.80071",
      "geonameId": 4043416,
      "toponymName": "Mangilao Municipality",
      "countryId": "4043988",
      "fcl": "A",
      "population": 15191,
      "countryCode": "GU",
      "name": "Mangilao",
      "fclName": "country, state, region,...",
      "countryName": "Guam",
      "fcodeName": "first-order administrative division",
      "adminName1": "Mangilao",
      "lat": "13.44766",
      "fcode": "ADM1"
    },
    {
      "adminCode1": "ME",
      "lng": "144.67464",
      "geonameId": 4043396,
      "toponymName": "Merizo Municipality",
      "countryId": "4043988",
      "fcl": "A",
      "population": 1850,
      "countryCode": "GU",
      "name": "Merizo Municipality",
      "fclName": "country, state, region,...",
      "countryName": "Guam",
      "fcodeName": "first-order administrative division",
      "adminName1": "Merizo",
      "lat": "13.27125",
      "fcode": "ADM1"
    },
    {
      "adminCode1": "MT",
      "lng": "144.78191",
      "geonameId": 4044148,
      "toponymName": "Mongmong-Toto-Maite Municipality",
      "countryId": "4043988",
      "fcl": "A",
      "population": 6825,
      "countryCode": "GU",
      "name": "Mongmong-Toto-Maite Municipality",
      "fclName": "country, state, region,...",
      "countryName": "Guam",
      "fcodeName": "first-order administrative division",
      "adminName1": "Mongmong-Toto-Maite",
      "lat": "13.46857",
      "fcode": "ADM1"
    },
    {
      "adminCode1": "PI",
      "lng": "144.69282",
      "geonameId": 4038478,
      "toponymName": "Piti Municipality",
      "countryId": "4043988",
      "fcl": "A",
      "population": 1666,
      "countryCode": "GU",
      "name": "Piti Municipality",
      "fclName": "country, state, region,...",
      "countryName": "Guam",
      "fcodeName": "first-order administrative division",
      "adminName1": "Piti",
      "lat": "13.46256",
      "fcode": "ADM1"
    },
    {
      "adminCode1": "SR",
      "lng": "144.67208",
      "geonameId": 4038555,
      "toponymName": "Santa Rita Municipality",
      "countryId": "4043988",
      "fcl": "A",
      "population": 7500,
      "countryCode": "GU",
      "name": "Santa Rita Municipality",
      "fclName": "country, state, region,...",
      "countryName": "Guam",
      "fcodeName": "first-order administrative division",
      "adminName1": "Santa Rita",
      "lat": "13.38609",
      "fcode": "ADM1"
    },
    {
      "adminCode1": "SJ",
      "lng": "144.75381",
      "geonameId": 4038590,
      "toponymName": "Sinajana Municipality",
      "countryId": "4043988",
      "fcl": "A",
      "population": 2592,
      "countryCode": "GU",
      "name": "Sinajana Municipality",
      "fclName": "country, state, region,...",
      "countryName": "Guam",
      "fcodeName": "first-order administrative division",
      "adminName1": "Sinajana",
      "lat": "13.46334",
      "fcode": "ADM1"
    },
    {
      "adminCode1": "TF",
      "lng": "144.7588",
      "geonameId": 4038652,
      "toponymName": "Talofofo Municipality",
      "countryId": "4043988",
      "fcl": "A",
      "population": 3215,
      "countryCode": "GU",
      "name": "Talofofo Municipality",
      "fclName": "country, state, region,...",
      "countryName": "Guam",
      "fcodeName": "first-order administrative division",
      "adminName1": "Talofofo",
      "lat": "13.35522",
      "fcode": "ADM1"
    },
    {
      "adminCode1": "TM",
      "lng": "144.78094",
      "geonameId": 4038661,
      "toponymName": "Tamuning-Tumon-Harmon Municipality",
      "countryId": "4043988",
      "fcl": "A",
      "population": 19685,
      "countryCode": "GU",
      "name": "Tamuning",
      "fclName": "country, state, region,...",
      "countryName": "Guam",
      "fcodeName": "first-order administrative division",
      "adminName1": "Tamuning",
      "lat": "13.48759",
      "fcode": "ADM1"
    },
    {
      "adminCode1": "UM",
      "lng": "144.66909",
      "geonameId": 4038739,
      "toponymName": "Umatac Municipality",
      "countryId": "4043988",
      "fcl": "A",
      "population": 903,
      "countryCode": "GU",
      "name": "Umatac",
      "fclName": "country, state, region,...",
      "countryName": "Guam",
      "fcodeName": "first-order administrative division",
      "adminName1": "Umatac",
      "lat": "13.30739",
      "fcode": "ADM1"
    },
    {
      "adminCode1": "YG",
      "lng": "144.88913",
      "geonameId": 4038796,
      "toponymName": "Yigo Municipality",
      "countryId": "4043988",
      "fcl": "A",
      "population": 20539,
      "countryCode": "GU",
      "name": "Yigo",
      "fclName": "country, state, region,...",
      "countryName": "Guam",
      "fcodeName": "first-order administrative division",
      "adminName1": "Yigo",
      "lat": "13.53603",
      "fcode": "ADM1"
    },
    {
      "adminCode1": "YN",
      "lng": "144.77714",
      "geonameId": 4038811,
      "toponymName": "Yona Municipality",
      "countryId": "4043988",
      "fcl": "A",
      "population": 6484,
      "countryCode": "GU",
      "name": "Yona",
      "fclName": "country, state, region,...",
      "countryName": "Guam",
      "fcodeName": "first-order administrative division",
      "adminName1": "Yona",
      "lat": "13.40972",
      "fcode": "ADM1"
    }
  ]
}