{
  "totalResultsCount": 7,
  "geonames": [
    {
      "adminCode1": "10096138",
      "lng": "21.14735",
      "geonameId": 10096138,
      "toponymName": "Ferizaj District",
      "countryId": "831053",
      "fcl": "A",
      "population": 185806,
      "countryCode": "XK",
      "name": "Ferizaj",
      "fclName": "country, state, region,...",
      "countryName": "Kosovo",
      "fcodeName": "first-order administrative division",
      "adminName1": "Ferizaj",
      "lat": "42.36931",
      "fcode": "ADM1"
    },
    {
      "adminCode1": "10096859",
      "lng": "20.4235",
      "geonameId": 10096859,
      "toponymName": "Gjakova District",
      "countryId": "831053",
      "fcl": "A",
      "population": 194672,
      "countryCode": "XK",
      "name": "Gjakova",
      "fclName": "country, state, region,...",
      "countryName": "Kosovo",
      "fcodeName": "first-order administrative division",
      "adminName1": "Gjakova",
      "lat": "42.38775",
      "fcode": "ADM1"
    },
    {
      "adminCode1": "10097357",
      "lng": "21.46716",
      "geonameId": 10097357,
      "toponymName": "Gjilan District",
      "countryId": "831053",
      "fcl": "A",
      "population": 180783,
      "countryCode": "XK",
      "name": "Gjilan",
      "fclName": "country, state, region,...",
      "countryName": "Kosovo",
      "fcodeName": "first-order administrative division",
      "adminName1": "Gjilan",
      "lat": "42.46078",
      "fcode": "ADM1"
    },
    {
      "adminCode1": "10097358",
      "lng": "20.876",
      "geonameId": 10097358,
      "toponymName": "Mitrovica District",
      "countryId": "831053",
      "fcl": "A",
      "population": 232833,
      "countryCode": "XK",
      "name": "Mitrovica",
      "fclName": "country, state, region,...",
      "countryName": "Kosovo",
      "fcodeName": "first-order administrative division",
      "adminName1": "Mitrovica",
      "lat": "42.89574",
      "fcode": "ADM1"
    },
    {
      "adminCode1": "10097359",
      "lng": "20.30072",
      "geonameId": 10097359,
      "toponymName": "Pec District",
      "countryId": "831053",
      "fcl": "A",
      "population": 174235,
      "countryCode": "XK",
      "name": "Pec",
      "fclName": "country, state, region,...",
      "countryName": "Kosovo",
      "fcodeName": "first-order administrative division",
      "adminName1": "Pec",
      "lat": "42.6632",
      "fcode": "ADM1"
    },
    {
      "adminCode1": "10097360",
      "lng": "21.16486",
      "geonameId": 10097360,
      "toponymName": "Pristina District",
      "countryId": "831053",
      "fcl": "A",
      "population": 477312,
      "countryCode": "XK",
      "name": "Pristina",
      "fclName": "country, state, region,...",
      "countryName": "Kosovo",
      "fcodeName": "first-order administrative division",
      "adminName1": "Pristina",
      "lat": "42.66308",
      "fcode": "ADM1"
    },
    {
      "adminCode1": "10097361",
      "lng": "20.74232",
      "geonameId": 10097361,
      "toponymName": "Prizren District",
      "countryId": "831053",
      "fcl": "A",
      "population": 331670,
      "countryCode": "XK",
      "name": "Prizren",
      "fclName": "country, state, region,...",
      "countryName": "Kosovo",
      "fcodeName": "first-order administrative division",
      "adminName1": "Prizren",
      "lat": "42.21566",
      "fcode": "ADM1"
    }
  ]
}